Telemetry.timestamp,Telemetry.epochTimestamp,flightStates,Telemetry.INS.latitudeDecDeg,Telemetry.INS.longitudeDecDeg,Telemetry.INS.altitudeMeter,Telemetry.INS.gpsFix,Telemetry.INS.gpsHorizontalAccuracyMeter,Telemetry.INS.gpsVerticalAccuracyMeter,Telemetry.INS.yawDecDeg,Telemetry.INS.pitchDecDeg,Telemetry.INS.rollDecDeg,Telemetry.INS.pressureKpa,AuxPower.pwr12VOn,AuxPower.pwr28VOn,AuxPower.amps28V,AuxPwr Watts 28V(no JSON),AuxPower.statusCode
11/13/2020 13:36,1605274571,Operable,43.740287,-95.531844,16829.122,3D,2.228,3.785,39.5,-0.7,0.3,8.87,F,F,0.29304,8.20512,No errors
11/13/2020 13:36,1605274572,Operable,43.740358,-95.53152,16833.617,3D,2.229,3.789,39,-0.6,0.4,8.88,F,F,0.288156,8.068368,No errors
11/13/2020 13:36,1605274573,Operable,43.740427,-95.531194,16837.94,3D,2.238,3.802,38.799999,-0.4,0.4,8.87,F,F,0.29304,8.20512,No errors
11/13/2020 13:36,1605274574,Operable,43.740496,-95.530866,16842.39,3D,2.238,3.808,38.599998,-0.3,0.4,8.86,F,F,0.29304,8.20512,No errors
11/13/2020 13:36,1605274575,Operable,43.740565,-95.530538,16846.768,3D,2.236,3.81,38.400002,-0.4,0.1,8.86,F,F,0.288156,8.068368,No errors
11/13/2020 13:36,1605274576,Operable,43.740633,-95.530208,16851.168,3D,2.233,3.812,37.400002,-0.5,0.3,8.83,F,F,0.29304,8.20512,No errors
11/13/2020 13:36,1605274577,Operable,43.7407,-95.529878,16855.666,3D,2.228,3.812,36.700001,-0.6,0.4,8.84,F,F,0.288156,8.068368,No errors
11/13/2020 13:36,1605274578,Operable,43.740768,-95.529547,16860.252,3D,2.224,3.819,36.099998,-0.4,0.5,8.84,F,F,0.288156,8.068368,No errors
11/13/2020 13:36,1605274579,Operable,43.740837,-95.529216,16864.985,3D,2.211,3.816,35.200001,-0.4,0.6,8.84,F,F,0.288156,8.068368,No errors
11/13/2020 13:36,1605274580,Operable,43.740907,-95.528883,16869.273,3D,2.203,3.831,34.900002,-0.3,0.5,8.81,F,F,0.288156,8.068368,No errors
11/13/2020 13:36,1605274581,Operable,43.740978,-95.528548,16873.672,3D,2.192,3.847,34.900002,-0.4,0.2,8.82,F,F,0.29304,8.20512,No errors
11/13/2020 13:36,1605274582,Operable,43.74105,-95.528213,16878.002,3D,2.2,3.885,35.099998,-0.4,-0.1,8.81,F,F,0.288156,8.068368,No errors
11/13/2020 13:36,1605274583,Operable,43.741123,-95.527875,16882.242,3D,2.209,3.904,34.299999,-0.7,0,8.81,F,F,0.288156,8.068368,No errors
11/13/2020 13:36,1605274584,Operable,43.741196,-95.527537,16886.594,3D,2.202,3.918,34.599998,-0.3,0,8.79,F,F,0.288156,8.068368,No errors
11/13/2020 13:36,1605274585,Operable,43.74127,-95.527197,16890.838,3D,2.202,3.926,34.200001,-0.5,0.2,8.79,F,F,0.288156,8.068368,No errors
11/13/2020 13:36,1605274586,Operable,43.741344,-95.526856,16895.222,3D,2.203,3.927,34,-0.6,0.2,8.78,F,F,0.29304,8.20512,No errors
11/13/2020 13:36,1605274587,Operable,43.74142,-95.526515,16899.466,3D,2.214,3.933,33.599998,0,0.9,8.79,F,F,0.288156,8.068368,No errors
11/13/2020 13:36,1605274588,Operable,43.741498,-95.526171,16903.76,3D,2.222,3.929,34.799999,-0.2,0.3,8.77,F,F,0.288156,8.068368,No errors
11/13/2020 13:36,1605274589,Operable,43.741578,-95.525826,16908.041,3D,2.224,3.911,35,-0.7,0.1,8.76,F,F,0.288156,8.068368,No errors
11/13/2020 13:36,1605274590,Operable,43.74166,-95.52548,16912.531,3D,2.227,3.878,35.299999,-0.6,0.4,8.75,F,F,0.29304,8.20512,No errors
11/13/2020 13:36,1605274591,Operable,43.741744,-95.525133,16916.729,3D,2.234,3.846,36.400002,-0.6,0.1,8.76,F,F,0.288156,8.068368,No errors
11/13/2020 13:36,1605274592,Operable,43.741831,-95.524786,16921.005,3D,2.243,3.808,36.799999,-0.5,0.4,8.75,F,F,0.29304,8.20512,No errors
11/13/2020 13:36,1605274593,Operable,43.741917,-95.524437,16925.248,3D,2.253,3.771,37.900002,-0.3,0.2,8.75,F,F,0.288156,8.068368,No errors
11/13/2020 13:36,1605274594,Operable,43.742005,-95.524088,16929.676,3D,2.27,3.77,38.599998,-0.5,0.1,8.75,F,F,0.288156,8.068368,No errors
11/13/2020 13:36,1605274595,Operable,43.742091,-95.523738,16933.98,3D,2.286,3.768,39,-0.6,0.3,8.74,F,F,0.288156,8.068368,No errors
11/13/2020 13:36,1605274596,Operable,43.742176,-95.523385,16938.048,3D,2.298,3.762,40.200001,-0.6,-0.1,8.73,F,F,0.288156,8.068368,No errors
11/13/2020 13:36,1605274597,Operable,43.74226,-95.52303,16942.153,3D,2.314,3.771,40.400002,-0.8,0.1,8.73,F,F,0.288156,8.068368,No errors
11/13/2020 13:36,1605274598,Operable,43.742342,-95.522677,16946.525,3D,2.328,3.775,41.200001,-0.5,0.2,8.71,F,F,0.29304,8.20512,No errors
11/13/2020 13:36,1605274599,Operable,43.742425,-95.522323,16950.701,3D,2.331,3.775,41.900002,-0.7,0.2,8.72,F,F,0.29304,8.20512,No errors
11/13/2020 13:36,1605274600,Operable,43.742507,-95.52197,16954.943,3D,2.323,3.784,42.799999,-0.4,0,8.7,F,F,0.288156,8.068368,No errors
11/13/2020 13:36,1605274601,Operable,43.74259,-95.521617,16959.178,3D,2.298,3.78,43,-0.2,0.3,8.72,F,F,0.29304,8.20512,No errors
11/13/2020 13:36,1605274602,Operable,43.742673,-95.521265,16963.395,3D,2.278,3.773,43.400002,-0.6,0,8.68,F,F,0.29304,8.20512,No errors
11/13/2020 13:36,1605274603,Operable,43.742756,-95.520913,16967.608,3D,2.275,3.771,43.099998,-0.6,0.3,8.68,F,F,0.29304,8.20512,No errors
11/13/2020 13:36,1605274604,Operable,43.742838,-95.520563,16971.889,3D,2.288,3.783,43.5,-0.4,0.2,8.67,F,F,0.288156,8.068368,No errors
11/13/2020 13:36,1605274605,Operable,43.742919,-95.520212,16976.25,3D,2.305,3.792,43.900002,-0.2,0.2,8.67,F,F,0.288156,8.068368,No errors
11/13/2020 13:36,1605274606,Operable,43.743,-95.51986,16980.484,3D,2.311,3.787,43.400002,-0.6,0.1,8.68,F,F,0.288156,8.068368,No errors
11/13/2020 13:36,1605274607,Operable,43.74308,-95.519509,16984.681,3D,2.311,3.773,43.599998,-0.5,0.1,8.67,F,F,0.29304,8.20512,No errors
11/13/2020 13:36,1605274608,Operable,43.743158,-95.519157,16988.832,3D,2.301,3.75,43.400002,-0.6,0.2,8.65,F,F,0.29304,8.20512,No errors
11/13/2020 13:36,1605274609,Operable,43.743236,-95.518806,16993.211,3D,2.292,3.73,43.299999,-0.5,0.1,8.65,F,F,0.288156,8.068368,No errors
11/13/2020 13:36,1605274610,Operable,43.743312,-95.518455,16997.453,3D,2.29,3.717,43.400002,-0.2,0.2,8.65,F,F,0.288156,8.068368,No errors
11/13/2020 13:36,1605274611,Operable,43.743388,-95.518104,17001.739,3D,2.292,3.716,42.599998,-0.4,0.4,8.65,F,F,0.29304,8.20512,No errors
11/13/2020 13:36,1605274612,Operable,43.743462,-95.517753,17005.975,3D,2.293,3.72,43,-0.4,0,8.65,F,F,0.288156,8.068368,No errors
11/13/2020 13:36,1605274613,Operable,43.743534,-95.517401,17010.326,3D,2.288,3.723,42.5,-0.7,-0.1,8.64,F,F,0.288156,8.068368,No errors
11/13/2020 13:36,1605274614,Operable,43.743604,-95.51705,17014.714,3D,2.282,3.726,42.400002,-0.5,0.1,8.61,F,F,0.288156,8.068368,No errors
11/13/2020 13:36,1605274615,Operable,43.743673,-95.516698,17019.222,3D,2.275,3.73,42.400002,-0.1,0.3,8.62,F,F,0.288156,8.068368,No errors
11/13/2020 13:36,1605274616,Operable,43.74374,-95.516347,17023.653,3D,2.266,3.734,42.099998,-0.3,0.3,8.62,F,F,0.29304,8.20512,No errors
11/13/2020 13:36,1605274617,Operable,43.743805,-95.515996,17028.067,3D,2.26,3.743,41.599998,-0.6,0.2,8.6,F,F,0.29304,8.20512,No errors
11/13/2020 13:36,1605274618,Operable,43.74387,-95.515645,17032.479,3D,2.251,3.751,41.299999,-0.5,0.5,8.59,F,F,0.288156,8.068368,No errors
11/13/2020 13:36,1605274619,Operable,43.743932,-95.515295,17036.954,3D,2.243,3.75,41.700001,-0.4,0.2,8.59,F,F,0.288156,8.068368,No errors
11/13/2020 13:37,1605274620,Operable,43.743993,-95.514944,17041.507,3D,2.239,3.767,41.400002,-0.7,0.2,8.58,F,F,0.288156,8.068368,No errors
11/13/2020 13:37,1605274621,Operable,43.744053,-95.514594,17046.373,3D,2.234,3.766,41.299999,-0.4,0.4,8.58,F,F,0.29304,8.20512,No errors
11/13/2020 13:37,1605274622,Operable,43.744111,-95.514243,17050.78,3D,2.23,3.754,41.400002,-0.4,0.3,8.57,F,F,0.29304,8.20512,No errors
11/13/2020 13:37,1605274623,Operable,43.744168,-95.513891,17055.249,3D,2.217,3.734,41.400002,-0.5,0.3,8.57,F,F,0.288156,8.068368,No errors
11/13/2020 13:37,1605274624,Operable,43.744225,-95.513539,17059.829,3D,2.208,3.73,41.400002,-0.6,0.2,8.57,F,F,0.29304,8.20512,No errors
11/13/2020 13:37,1605274625,Operable,43.744284,-95.513188,17064.422,3D,2.205,3.732,41.200001,-0.3,0.5,8.56,F,F,0.29304,8.20512,No errors
11/13/2020 13:37,1605274626,Operable,43.744344,-95.512838,17068.982,3D,2.204,3.735,41.200001,-0.6,0.1,8.55,F,F,0.29304,8.20512,No errors
11/13/2020 13:37,1605274627,Operable,43.744405,-95.512489,17073.632,3D,2.205,3.739,41.5,-0.5,0,8.54,F,F,0.288156,8.068368,No errors
11/13/2020 13:37,1605274628,Operable,43.744467,-95.512138,17078.295,3D,2.207,3.757,41.099998,-0.2,0.3,8.52,F,F,0.288156,8.068368,No errors
11/13/2020 13:37,1605274629,Operable,43.744529,-95.511787,17082.902,3D,2.217,3.787,41,-0.9,-0.2,8.52,F,F,0.29304,8.20512,No errors
11/13/2020 13:37,1605274630,Operable,43.744589,-95.511434,17087.507,3D,2.226,3.809,41,-0.6,-0.2,8.52,F,F,0.29304,8.20512,No errors
11/13/2020 13:37,1605274631,Operable,43.744647,-95.511081,17092.093,3D,2.225,3.831,40.599998,-0.8,-0.2,8.51,F,F,0.29304,8.20512,No errors
11/13/2020 13:37,1605274632,Operable,43.744704,-95.510727,17096.62,3D,2.234,3.846,40.200001,-0.5,0.1,8.5,F,F,0.29304,8.20512,No errors
11/13/2020 13:37,1605274633,Operable,43.74476,-95.510372,17101.126,3D,2.24,3.856,39.799999,-0.6,0.1,8.51,F,F,0.29304,8.20512,No errors
11/13/2020 13:37,1605274634,Operable,43.744816,-95.510019,17105.633,3D,2.251,3.879,39.5,-0.6,0,8.5,F,F,0.288156,8.068368,No errors
11/13/2020 13:37,1605274635,Operable,43.74487,-95.509666,17110.016,3D,2.257,3.898,39,-0.5,0.3,8.5,F,F,0.288156,8.068368,No errors
11/13/2020 13:37,1605274636,Operable,43.744924,-95.509315,17114.503,3D,2.25,3.908,38.799999,-0.6,0.2,8.49,F,F,0.288156,8.068368,No errors
11/13/2020 13:37,1605274637,Operable,43.744979,-95.508966,17119.022,3D,2.246,3.919,38.700001,-0.4,0.1,8.49,F,F,0.288156,8.068368,No errors
11/13/2020 13:37,1605274638,Operable,43.745034,-95.508617,17123.426,3D,2.232,3.925,38.099998,-0.4,0.4,8.47,F,F,0.288156,8.068368,No errors
11/13/2020 13:37,1605274639,Operable,43.745087,-95.508269,17127.869,3D,2.236,3.936,37.299999,-0.8,0.3,8.46,F,F,0.288156,8.068368,No errors
11/13/2020 13:37,1605274640,Operable,43.74514,-95.50792,17132.345,3D,2.247,3.954,37,-0.6,0.3,8.45,F,F,0.288156,8.068368,No errors
11/13/2020 13:37,1605274641,Operable,43.745191,-95.507571,17136.73,3D,2.25,3.959,37,-0.6,0,8.46,F,F,0.288156,8.068368,No errors
11/13/2020 13:37,1605274642,Operable,43.745239,-95.507221,17140.935,3D,2.261,3.984,36.700001,-0.2,0.3,8.46,F,F,0.29304,8.20512,No errors
11/13/2020 13:37,1605274643,Operable,43.745285,-95.506873,17145.355,3D,2.275,4.022,35.900002,-0.3,0.4,8.43,F,F,0.288156,8.068368,No errors
11/13/2020 13:37,1605274644,Operable,43.745329,-95.506525,17149.908,3D,2.285,4.055,35.900002,-0.3,0.2,8.43,F,F,0.288156,8.068368,No errors
11/13/2020 13:37,1605274645,Operable,43.745373,-95.506178,17154.443,3D,2.298,4.088,34.599998,-0.6,0.6,8.42,F,F,0.288156,8.068368,No errors
11/13/2020 13:37,1605274646,Operable,43.745415,-95.505833,17158.908,3D,2.308,4.113,33.900002,-0.4,1,8.4,F,F,0.288156,8.068368,No errors
11/13/2020 13:37,1605274647,Operable,43.745458,-95.505489,17163.267,3D,2.303,4.118,34.599998,-0.6,0.3,8.4,F,F,0.288156,8.068368,No errors
11/13/2020 13:37,1605274648,Operable,43.7455,-95.505145,17167.748,3D,2.283,4.118,34.700001,-0.5,0.2,8.41,F,F,0.288156,8.068368,No errors
11/13/2020 13:37,1605274649,Operable,43.74554,-95.504802,17172.305,3D,2.274,4.126,34.799999,-0.3,0.2,8.4,F,F,0.29304,8.20512,No errors
11/13/2020 13:37,1605274650,Operable,43.745579,-95.504461,17176.841,3D,2.272,4.148,34.400002,-0.5,0.4,8.4,F,F,0.288156,8.068368,No errors
11/13/2020 13:37,1605274651,Operable,43.745616,-95.504121,17181.385,3D,2.264,4.149,34.099998,-0.5,0.5,8.39,F,F,0.29304,8.20512,No errors
11/13/2020 13:37,1605274652,Operable,43.745651,-95.503781,17185.94,3D,2.256,4.151,33.5,-0.6,0.8,8.4,F,F,0.288156,8.068368,No errors
11/13/2020 13:37,1605274653,Operable,43.745685,-95.503441,17190.487,3D,2.248,4.155,34.099998,-0.3,0.5,8.38,F,F,0.29304,8.20512,No errors
11/13/2020 13:37,1605274654,Operable,43.745717,-95.503101,17195.191,3D,2.242,4.158,34.400002,-0.6,0.3,8.38,F,F,0.288156,8.068368,No errors
11/13/2020 13:37,1605274655,Operable,43.745717,-95.503101,17195.191,3D,2.242,4.158,34.799999,-0.6,0.1,8.38,F,F,0.288156,8.068368,No errors
11/13/2020 13:37,1605274655,Operable,43.745777,-95.502424,17204.752,3D,2.245,4.177,34.599998,-0.1,0.4,8.36,F,F,0.288156,8.068368,No errors
11/13/2020 13:37,1605274657,Operable,43.745805,-95.502087,17209.434,3D,2.252,4.184,34.099998,-0.7,0.5,8.34,F,F,0.288156,8.068368,No errors
11/13/2020 13:37,1605274658,Operable,43.745832,-95.501751,17213.963,3D,2.244,4.157,34.799999,-0.6,0.2,8.35,F,F,0.288156,8.068368,No errors
11/13/2020 13:37,1605274659,Operable,43.745857,-95.501416,17218.737,3D,2.247,4.134,35.200001,-0.4,0.1,8.33,F,F,0.288156,8.068368,No errors
11/13/2020 13:37,1605274660,Operable,43.74588,-95.501082,17223.352,3D,2.257,4.139,35.299999,-0.4,0.1,8.33,F,F,0.29304,8.20512,No errors
11/13/2020 13:37,1605274661,Operable,43.745902,-95.500749,17227.985,3D,2.276,4.163,35.400002,-0.6,0,8.33,F,F,0.288156,8.068368,No errors
11/13/2020 13:37,1605274662,Operable,43.745922,-95.500417,17232.883,3D,2.294,4.17,35.200001,-0.6,0.3,8.33,F,F,0.29304,8.20512,No errors
11/13/2020 13:37,1605274663,Operable,43.745941,-95.500087,17237.519,3D,2.309,4.171,35.099998,-0.6,0.4,8.32,F,F,0.29304,8.20512,No errors
11/13/2020 13:37,1605274664,Operable,43.74596,-95.499757,17242.296,3D,2.317,4.162,35.5,-0.3,0.5,8.31,F,F,0.29304,8.20512,No errors
11/13/2020 13:37,1605274665,Operable,43.745977,-95.499428,17247.17,3D,2.321,4.149,35.799999,-0.2,0.5,8.31,F,F,0.29304,8.20512,No errors
11/13/2020 13:37,1605274666,Operable,43.745994,-95.499101,17252.05,3D,2.325,4.134,36.099998,-0.5,0.3,8.3,F,F,0.29304,8.20512,No errors
11/13/2020 13:37,1605274667,Operable,43.74601,-95.498776,17256.999,3D,2.332,4.111,36.099998,-0.3,0.5,8.29,F,F,0.29304,8.20512,No errors
11/13/2020 13:37,1605274668,Operable,43.746025,-95.498452,17261.755,3D,2.338,4.091,36.299999,-0.4,0.5,8.28,F,F,0.288156,8.068368,No errors
11/13/2020 13:37,1605274669,Operable,43.746039,-95.498129,17266.514,3D,2.349,4.079,36.799999,-0.7,0.2,8.26,F,F,0.288156,8.068368,No errors
11/13/2020 13:37,1605274670,Operable,43.746052,-95.497808,17271.3,3D,2.359,4.064,37.099998,-0.6,0.4,8.26,F,F,0.288156,8.068368,No errors
11/13/2020 13:37,1605274671,Operable,43.746064,-95.49749,17276.054,3D,2.37,4.067,37.799999,-0.3,0.3,8.26,F,F,0.288156,8.068368,No errors
11/13/2020 13:37,1605274672,Operable,43.746075,-95.497175,17280.875,3D,2.378,4.069,38.299999,-0.4,0.1,8.26,F,F,0.29304,8.20512,No errors
11/13/2020 13:37,1605274673,Operable,43.746085,-95.496863,17285.773,3D,2.379,4.07,37.799999,-0.9,0.3,8.25,F,F,0.29304,8.20512,No errors
11/13/2020 13:37,1605274674,Operable,43.746095,-95.496554,17290.654,3D,2.38,4.07,38.400002,-0.8,0.2,8.25,F,F,0.288156,8.068368,No errors
11/13/2020 13:37,1605274675,Operable,43.746104,-95.496246,17295.466,3D,2.381,4.066,39.299999,-0.1,0.3,8.23,F,F,0.288156,8.068368,No errors
11/13/2020 13:37,1605274676,Operable,43.746111,-95.495939,17300.269,3D,2.377,4.045,39.799999,-0.3,0.1,8.22,F,F,0.288156,8.068368,No errors
11/13/2020 13:37,1605274677,Operable,43.746116,-95.495635,17305.175,3D,2.373,4.024,39.5,-0.8,0.4,8.21,F,F,0.288156,8.068368,No errors
11/13/2020 13:37,1605274678,Operable,43.74612,-95.495333,17310.144,3D,2.373,4.009,40.299999,-0.7,0.3,8.22,F,F,0.29304,8.20512,No errors
11/13/2020 13:37,1605274679,Operable,43.746122,-95.495032,17315.058,3D,2.371,4.004,41.599998,-0.1,0.1,8.21,F,F,0.288156,8.068368,No errors
11/13/2020 13:38,1605274680,Operable,43.746124,-95.494736,17319.816,3D,2.37,4.003,41.400002,-0.6,0.3,8.19,F,F,0.288156,8.068368,No errors
11/13/2020 13:38,1605274681,Operable,43.746124,-95.494443,17324.606,3D,2.372,4.005,41.5,-0.5,0.6,8.19,F,F,0.29304,8.20512,No errors
11/13/2020 13:38,1605274682,Operable,43.746124,-95.494155,17329.326,3D,2.367,4.008,42.299999,-0.2,0.4,8.18,F,F,0.29304,8.20512,No errors
11/13/2020 13:38,1605274683,Operable,43.746124,-95.493869,17334.181,3D,2.367,4.007,43,-0.6,-0.2,8.19,F,F,0.288156,8.068368,No errors
11/13/2020 13:38,1605274684,Operable,43.746123,-95.493585,17338.949,3D,2.367,4.007,42.799999,-0.6,0.2,8.19,F,F,0.288156,8.068368,No errors
11/13/2020 13:38,1605274685,Operable,43.746123,-95.493304,17343.8,3D,2.387,4.018,42.799999,-0.7,0.2,8.17,F,F,0.29304,8.20512,No errors
11/13/2020 13:38,1605274686,Operable,43.746121,-95.493026,17348.637,3D,2.401,4.016,43.299999,-0.5,0.2,8.17,F,F,0.288156,8.068368,No errors
11/13/2020 13:38,1605274687,Operable,43.746119,-95.49275,17353.354,3D,2.415,4.017,43.299999,-0.4,0.3,8.15,F,F,0.288156,8.068368,No errors
11/13/2020 13:38,1605274688,Operable,43.746117,-95.492476,17358.151,3D,2.42,4.006,43.700001,-0.3,0.2,8.15,F,F,0.29304,8.20512,No errors
11/13/2020 13:38,1605274689,Operable,43.746113,-95.492204,17362.913,3D,2.419,3.991,43.299999,-0.7,0.3,8.14,F,F,0.29304,8.20512,No errors
11/13/2020 13:38,1605274690,Operable,43.746108,-95.491935,17367.626,3D,2.419,3.976,43.700001,-0.6,0.2,8.14,F,F,0.283272,7.931616,No errors
11/13/2020 13:38,1605274691,Operable,43.746104,-95.491668,17372.604,3D,2.419,3.955,43.599998,-0.6,0.3,8.13,F,F,0.29304,8.20512,No errors
11/13/2020 13:38,1605274692,Operable,43.7461,-95.491403,17377.368,3D,2.417,3.932,43.5,-0.2,0.5,8.13,F,F,0.288156,8.068368,No errors
11/13/2020 13:38,1605274693,Operable,43.746096,-95.49114,17382.222,3D,2.418,3.91,43.400002,-0.6,0.1,8.11,F,F,0.29304,8.20512,No errors
11/13/2020 13:38,1605274694,Operable,43.746091,-95.490877,17386.879,3D,2.416,3.884,44,-0.3,-0.1,8.11,F,F,0.29304,8.20512,No errors
11/13/2020 13:38,1605274695,Operable,43.746084,-95.490615,17391.587,3D,2.407,3.857,43.5,-0.2,0.3,8.1,F,F,0.29304,8.20512,No errors
11/13/2020 13:38,1605274696,Operable,43.746078,-95.490355,17396.284,3D,2.397,3.835,43.200001,-0.7,0,8.1,F,F,0.288156,8.068368,No errors
11/13/2020 13:38,1605274697,Operable,43.746071,-95.490096,17401.002,3D,2.388,3.813,43.799999,0,0.2,8.1,F,F,0.288156,8.068368,No errors
11/13/2020 13:38,1605274698,Operable,43.746064,-95.489839,17405.578,3D,2.386,3.81,42.700001,-0.4,0.5,8.09,F,F,0.29304,8.20512,No errors
11/13/2020 13:38,1605274699,Operable,43.746056,-95.489581,17410.08,3D,2.387,3.811,43.5,-0.2,0.2,8.08,F,F,0.29304,8.20512,No errors
11/13/2020 13:38,1605274700,Operable,43.746048,-95.489325,17414.782,3D,2.376,3.803,43.099998,-0.3,0.4,8.07,F,F,0.29304,8.20512,No errors
11/13/2020 13:38,1605274701,Operable,43.746041,-95.489068,17419.469,3D,2.364,3.793,43.299999,-0.4,0.1,8.08,F,F,0.288156,8.068368,No errors
11/13/2020 13:38,1605274702,Operable,43.746033,-95.488812,17424.219,3D,2.352,3.784,43.299999,-0.7,0,8.08,F,F,0.288156,8.068368,No errors
11/13/2020 13:38,1605274703,Operable,43.746026,-95.488557,17428.916,3D,2.349,3.777,43.400002,-0.4,0.1,8.06,F,F,0.288156,8.068368,No errors
11/13/2020 13:38,1605274704,Operable,43.746019,-95.488303,17433.683,3D,2.338,3.766,43.5,-0.2,0.2,8.07,F,F,0.29304,8.20512,No errors
11/13/2020 13:38,1605274705,Operable,43.746011,-95.48805,17438.359,3D,2.338,3.763,43.400002,-0.2,0.4,8.05,F,F,0.29304,8.20512,No errors
11/13/2020 13:38,1605274706,Operable,43.746004,-95.487798,17443.162,3D,2.327,3.738,42.900002,-0.6,0.5,8.05,F,F,0.29304,8.20512,No errors
11/13/2020 13:38,1605274707,Operable,43.745995,-95.487549,17447.893,3D,2.322,3.729,43,-0.4,0.6,8.04,F,F,0.29304,8.20512,No errors
11/13/2020 13:38,1605274708,Operable,43.745986,-95.4873,17452.599,3D,2.316,3.71,43.599998,-0.6,0,8.04,F,F,0.29304,8.20512,No errors
11/13/2020 13:38,1605274709,Operable,43.745977,-95.487052,17457.254,3D,2.322,3.709,44,-0.1,0.1,8.03,F,F,0.29304,8.20512,No errors
11/13/2020 13:38,1605274710,Operable,43.745968,-95.486805,17461.862,3D,2.325,3.688,43.799999,-0.4,0.2,8.01,F,F,0.288156,8.068368,No errors
11/13/2020 13:38,1605274711,Operable,43.745961,-95.486561,17466.61,3D,2.333,3.684,44.200001,-0.5,-0.1,8,F,F,0.288156,8.068368,No errors
11/13/2020 13:38,1605274712,Operable,43.745955,-95.48632,17471.319,3D,2.345,3.68,43.400002,-0.7,0.2,8,F,F,0.29304,8.20512,No errors
11/13/2020 13:38,1605274713,Operable,43.745948,-95.486079,17475.938,3D,2.353,3.672,43.5,-0.5,0.3,8,F,F,0.288156,8.068368,No errors
11/13/2020 13:38,1605274714,Operable,43.745941,-95.485842,17480.919,3D,2.356,3.659,43.700001,-0.6,0.2,8,F,F,0.29304,8.20512,No errors
11/13/2020 13:38,1605274715,Operable,43.745933,-95.485605,17485.603,3D,2.365,3.651,43.400002,-0.6,0.3,8,F,F,0.29304,8.20512,No errors
11/13/2020 13:38,1605274716,Operable,43.745927,-95.485372,17490.578,3D,2.383,3.655,43.299999,-0.7,0.3,7.99,F,F,0.29304,8.20512,No errors
11/13/2020 13:38,1605274717,Operable,43.745918,-95.485139,17495.282,3D,2.402,3.65,43.5,-0.4,0.5,7.98,F,F,0.288156,8.068368,No errors
11/13/2020 13:38,1605274718,Operable,43.74591,-95.484907,17500.18,3D,2.41,3.639,43.400002,-0.4,0.5,7.99,F,F,0.288156,8.068368,No errors
11/13/2020 13:38,1605274719,Operable,43.745902,-95.484676,17505.017,3D,2.419,3.636,43.700001,-0.5,0.3,7.97,F,F,0.288156,8.068368,No errors
11/13/2020 13:38,1605274720,Operable,43.745895,-95.484448,17510.047,3D,2.432,3.638,43.900002,-0.4,0.1,7.97,F,F,0.29304,8.20512,No errors
11/13/2020 13:38,1605274721,Operable,43.745888,-95.48422,17514.898,3D,2.441,3.63,43.599998,-0.7,0.1,7.96,F,F,0.288156,8.068368,No errors
11/13/2020 13:38,1605274722,Operable,43.74588,-95.483995,17519.839,3D,2.446,3.622,44,-0.4,0.1,7.95,F,F,0.29304,8.20512,No errors
11/13/2020 13:38,1605274723,Operable,43.745873,-95.483772,17524.742,3D,2.452,3.616,43.099998,-0.9,0.4,7.94,F,F,0.29304,8.20512,No errors
11/13/2020 13:38,1605274725,Operable,43.745866,-95.483553,17529.792,3D,2.457,3.611,44.5,-0.3,-0.3,7.94,F,F,0.29304,8.20512,No errors
11/13/2020 13:38,1605274725,Operable,43.745858,-95.483335,17534.555,3D,2.466,3.607,43.5,0,0.7,7.94,F,F,0.288156,8.068368,No errors
11/13/2020 13:38,1605274726,Operable,43.745849,-95.483118,17539.219,3D,2.474,3.603,44.200001,-0.2,0.1,7.93,F,F,0.288156,8.068368,No errors
11/13/2020 13:38,1605274728,Operable,43.745842,-95.482906,17544.231,3D,2.481,3.604,44.099998,-0.4,0,7.92,F,F,0.29304,8.20512,No errors
11/13/2020 13:38,1605274728,Operable,43.745835,-95.482694,17548.986,3D,2.493,3.61,43.5,-0.3,0.5,7.91,F,F,0.288156,8.068368,No errors
11/13/2020 13:38,1605274729,Operable,43.745828,-95.482484,17553.81,3D,2.508,3.627,43.599998,-0.4,0.3,7.9,F,F,0.29304,8.20512,No errors
11/13/2020 13:38,1605274731,Operable,43.745821,-95.482275,17558.584,3D,2.523,3.644,43.5,-0.6,0.1,7.91,F,F,0.288156,8.068368,No errors
11/13/2020 13:38,1605274731,Operable,43.745815,-95.482068,17563.414,3D,2.536,3.66,43.099998,-0.7,0.2,7.91,F,F,0.288156,8.068368,No errors
11/13/2020 13:38,1605274733,Operable,43.745808,-95.481862,17568.105,3D,2.546,3.676,42.799999,-0.9,0.2,7.9,F,F,0.288156,8.068368,No errors
11/13/2020 13:38,1605274734,Operable,43.745801,-95.481658,17572.665,3D,2.553,3.687,42.799999,-0.7,0.3,7.89,F,F,0.288156,8.068368,No errors
11/13/2020 13:38,1605274734,Operable,43.745794,-95.481458,17577.307,3D,2.56,3.707,42.799999,-0.4,0.3,7.88,F,F,0.288156,8.068368,No errors
11/13/2020 13:38,1605274736,Operable,43.745787,-95.48126,17581.871,3D,2.565,3.726,42.799999,-0.4,0.2,7.88,F,F,0.288156,8.068368,No errors
11/13/2020 13:38,1605274737,Operable,43.745782,-95.481065,17586.418,3D,2.568,3.742,42.299999,-0.6,0.1,7.88,F,F,0.288156,8.068368,No errors
11/13/2020 13:38,1605274737,Operable,43.745776,-95.480872,17591.051,3D,2.572,3.766,42.299999,-0.4,0,7.85,F,F,0.29304,8.20512,No errors
11/13/2020 13:38,1605274739,Operable,43.745772,-95.480683,17595.841,3D,2.576,3.797,41.5,-0.8,0,7.85,F,F,0.288156,8.068368,No errors
11/13/2020 13:39,1605274740,Operable,43.745767,-95.480497,17600.552,3D,2.583,3.838,40.799999,-0.9,0,7.85,F,F,0.288156,8.068368,No errors
11/13/2020 13:39,1605274740,Operable,43.745762,-95.480311,17605.054,3D,2.588,3.864,40.299999,-0.7,0.2,7.85,F,F,0.29304,8.20512,No errors
11/13/2020 13:39,1605274742,Operable,43.745757,-95.480128,17609.654,3D,2.584,3.89,39.799999,-0.6,0.2,7.85,F,F,0.29304,8.20512,No errors
11/13/2020 13:39,1605274743,Operable,43.745753,-95.479946,17614.062,3D,2.577,3.91,39.700001,0,0.3,7.83,F,F,0.29304,8.20512,No errors
11/13/2020 13:39,1605274743,Operable,43.745749,-95.479767,17618.638,3D,2.574,3.929,38,-0.7,0.5,7.83,F,F,0.288156,8.068368,No errors
11/13/2020 13:39,1605274745,Operable,43.745745,-95.479589,17623.005,3D,2.552,3.942,38.099998,-0.5,0.2,7.82,F,F,0.288156,8.068368,No errors
11/13/2020 13:39,1605274746,Operable,43.745742,-95.479415,17627.64,3D,2.536,3.948,37.700001,-0.6,0,7.82,F,F,0.29304,8.20512,No errors
11/13/2020 13:39,1605274746,Operable,43.745738,-95.479244,17632.096,3D,2.519,3.952,37.099998,-0.3,0.2,7.82,F,F,0.288156,8.068368,No errors
11/13/2020 13:39,1605274748,Operable,43.745734,-95.479075,17636.644,3D,2.502,3.96,36.200001,-0.4,0.4,7.81,F,F,0.288156,8.068368,No errors
11/13/2020 13:39,1605274749,Operable,43.745731,-95.47891,17641.312,3D,2.485,3.971,35.799999,-0.6,0.3,7.81,F,F,0.288156,8.068368,No errors
11/13/2020 13:39,1605274749,Operable,43.745729,-95.478747,17646.014,3D,2.467,3.98,35.900002,-0.3,0,7.81,F,F,0.288156,8.068368,No errors
11/13/2020 13:39,1605274751,Operable,43.745725,-95.478588,17650.732,3D,2.458,3.995,34.900002,0,0.6,7.79,F,F,0.288156,8.068368,No errors
11/13/2020 13:39,1605274752,Operable,43.745722,-95.478431,17655.495,3D,2.451,4.015,34.599998,-0.7,0.1,7.78,F,F,0.29304,8.20512,No errors
11/13/2020 13:39,1605274752,Operable,43.745718,-95.478277,17660.285,3D,2.439,4.035,34.599998,-0.6,0.2,7.77,F,F,0.29304,8.20512,No errors
11/13/2020 13:39,1605274754,Operable,43.745714,-95.478124,17665.139,3D,2.431,4.069,34.799999,-0.5,0,7.76,F,F,0.288156,8.068368,No errors
11/13/2020 13:39,1605274755,Operable,43.745709,-95.477973,17669.909,3D,2.428,4.107,34.5,-0.2,0.3,7.76,F,F,0.29304,8.20512,No errors
11/13/2020 13:39,1605274755,Operable,43.745703,-95.477825,17674.757,3D,2.418,4.125,34.099998,-0.6,0.2,7.75,F,F,0.29304,8.20512,No errors
11/13/2020 13:39,1605274757,Operable,43.745696,-95.477678,17679.5,3D,2.414,4.154,34,-0.4,0.6,7.75,F,F,0.29304,8.20512,No errors
11/13/2020 13:39,1605274758,Operable,43.745689,-95.477535,17684.262,3D,2.417,4.185,34.099998,-0.8,0.3,7.75,F,F,0.29304,8.20512,No errors
11/13/2020 13:39,1605274758,Operable,43.745681,-95.477395,17689.004,3D,2.422,4.206,34.700001,-0.6,0.1,7.73,F,F,0.29304,8.20512,No errors
11/13/2020 13:39,1605274760,Operable,43.745674,-95.477257,17693.784,3D,2.432,4.246,34.400002,-0.4,0.6,7.74,F,F,0.288156,8.068368,No errors
11/13/2020 13:39,1605274761,Operable,43.745668,-95.47712,17698.411,3D,2.438,4.254,35.400002,-0.5,0.1,7.73,F,F,0.288156,8.068368,No errors
11/13/2020 13:39,1605274761,Operable,43.745663,-95.476982,17703.269,3D,2.441,4.246,36.200001,0,0.1,7.71,F,F,0.288156,8.068368,No errors
11/13/2020 13:39,1605274763,Operable,43.745658,-95.476842,17708.247,3D,2.44,4.231,36.700001,-0.4,0,7.71,F,F,0.29304,8.20512,No errors
11/13/2020 13:39,1605274764,Operable,43.745653,-95.476703,17713.03,3D,2.437,4.21,36.799999,-0.3,0.2,7.7,F,F,0.29304,8.20512,No errors
11/13/2020 13:39,1605274764,Operable,43.74565,-95.476562,17717.884,3D,2.45,4.218,37.200001,-0.6,0.1,7.7,F,F,0.29304,8.20512,No errors
11/13/2020 13:39,1605274766,Operable,43.745648,-95.476421,17722.831,3D,2.478,4.257,37.400002,-0.6,0.3,7.69,F,F,0.29304,8.20512,No errors
11/13/2020 13:39,1605274767,Operable,43.745649,-95.476279,17727.721,3D,2.498,4.283,38.099998,-0.4,0.3,7.69,F,F,0.29304,8.20512,No errors
11/13/2020 13:39,1605274767,Operable,43.745651,-95.476138,17732.746,3D,2.512,4.302,38.200001,-0.8,0.3,7.68,F,F,0.29304,8.20512,No errors
11/13/2020 13:39,1605274769,Operable,43.745655,-95.475995,17737.687,3D,2.528,4.328,38.700001,-0.6,0.2,7.68,F,F,0.288156,8.068368,No errors
11/13/2020 13:39,1605274770,Operable,43.74566,-95.475853,17742.849,3D,2.538,4.34,39,-0.3,0.5,7.67,F,F,0.288156,8.068368,No errors
11/13/2020 13:39,1605274770,Operable,43.745665,-95.475709,17747.893,3D,2.54,4.343,39.599998,-0.5,0.2,7.66,F,F,0.288156,8.068368,No errors
11/13/2020 13:39,1605274772,Operable,43.745671,-95.475565,17753.032,3D,2.53,4.309,39.799999,-0.6,0.1,7.65,F,F,0.288156,8.068368,No errors
11/13/2020 13:39,1605274773,Operable,43.745677,-95.47542,17758.121,3D,2.522,4.278,39.799999,-0.7,0.2,7.65,F,F,0.288156,8.068368,No errors
11/13/2020 13:39,1605274773,Operable,43.745684,-95.475273,17762.868,3D,2.516,4.249,39.599998,-0.7,0.6,7.65,F,F,0.288156,8.068368,No errors
11/13/2020 13:39,1605274775,Operable,43.745694,-95.475127,17767.807,3D,2.512,4.232,40.299999,-0.7,0.1,7.63,F,F,0.29304,8.20512,No errors
11/13/2020 13:39,1605274776,Operable,43.745704,-95.474983,17773.234,3D,2.509,4.218,40.5,-0.2,0.2,7.64,F,F,0.288156,8.068368,No errors
11/13/2020 13:39,1605274776,Operable,43.745717,-95.474837,17778.359,3D,2.503,4.2,40.200001,-0.6,0,7.62,F,F,0.29304,8.20512,No errors
11/13/2020 13:39,1605274778,Operable,43.745732,-95.474689,17783.425,3D,2.506,4.216,39.799999,-0.2,0.4,7.62,F,F,0.29304,8.20512,No errors
11/13/2020 13:39,1605274779,Operable,43.745748,-95.474541,17788.569,3D,2.512,4.23,39.5,-0.2,0.4,7.62,F,F,0.288156,8.068368,No errors
11/13/2020 13:39,1605274779,Operable,43.745764,-95.474391,17793.62,3D,2.503,4.207,39.400002,-0.4,0.2,7.61,F,F,0.288156,8.068368,No errors
11/13/2020 13:39,1605274781,Operable,43.745781,-95.47424,17798.783,3D,2.49,4.182,38.5,-0.9,0.3,7.6,F,F,0.288156,8.068368,No errors
11/13/2020 13:39,1605274782,Operable,43.745799,-95.474087,17803.783,3D,2.481,4.164,38.200001,-0.8,0.3,7.61,F,F,0.288156,8.068368,No errors
11/13/2020 13:39,1605274782,Operable,43.745819,-95.473933,17808.872,3D,2.476,4.145,37.799999,-0.6,0.5,7.6,F,F,0.29304,8.20512,No errors
11/13/2020 13:39,1605274784,Operable,43.745843,-95.473777,17813.824,3D,2.47,4.134,37.5,-0.2,0.5,7.59,F,F,0.288156,8.068368,No errors
11/13/2020 13:39,1605274785,Operable,43.745869,-95.473621,17818.908,3D,2.472,4.128,37,-0.3,0.3,7.58,F,F,0.29304,8.20512,No errors
11/13/2020 13:39,1605274785,Operable,43.745898,-95.473464,17823.974,3D,2.474,4.121,36.400002,-0.2,0.4,7.58,F,F,0.29304,8.20512,No errors
11/13/2020 13:39,1605274787,Operable,43.745928,-95.473308,17829.158,3D,2.483,4.119,35.799999,-0.4,0.3,7.57,F,F,0.29304,8.20512,No errors
11/13/2020 13:39,1605274788,Operable,43.745959,-95.473151,17834.183,3D,2.495,4.117,35.299999,-0.4,0.2,7.56,F,F,0.288156,8.068368,No errors
11/13/2020 13:39,1605274788,Operable,43.74599,-95.472992,17839.141,3D,2.502,4.12,34.400002,-0.4,0.5,7.57,F,F,0.29304,8.20512,No errors
11/13/2020 13:39,1605274790,Operable,43.746022,-95.472832,17844.143,3D,2.5,4.119,34.599998,-0.5,0,7.55,F,F,0.288156,8.068368,No errors
11/13/2020 13:39,1605274791,Operable,43.746056,-95.47267,17848.987,3D,2.484,4.118,34.099998,-0.7,0.2,7.55,F,F,0.29304,8.20512,No errors
11/13/2020 13:39,1605274791,Operable,43.74609,-95.472506,17853.942,3D,2.467,4.123,34.400002,-0.4,0,7.54,F,F,0.288156,8.068368,No errors
11/13/2020 13:39,1605274793,Operable,43.746126,-95.472341,17858.835,3D,2.436,4.124,34,-0.5,0.3,7.53,F,F,0.29304,8.20512,No errors
11/13/2020 13:39,1605274794,Operable,43.746163,-95.472175,17863.531,3D,2.411,4.136,34.200001,-0.5,0.4,7.52,F,F,0.29304,8.20512,No errors
11/13/2020 13:39,1605274794,Operable,43.746202,-95.472009,17868.48,3D,2.414,4.169,35.5,-0.3,0.1,7.53,F,F,0.29304,8.20512,No errors
11/13/2020 13:39,1605274796,Operable,43.746243,-95.471842,17873.515,3D,2.413,4.182,35.799999,-0.5,0.4,7.51,F,F,0.288156,8.068368,No errors
11/13/2020 13:39,1605274797,Operable,43.746285,-95.471674,17878.447,3D,2.387,4.185,36.5,-0.4,0.5,7.51,F,F,0.29304,8.20512,No errors
11/13/2020 13:39,1605274797,Operable,43.746328,-95.471505,17883.592,3D,2.369,4.194,37.700001,-0.4,0.3,7.5,F,F,0.29304,8.20512,No errors
11/13/2020 13:39,1605274799,Operable,43.74637,-95.471335,17888.539,3D,2.355,4.2,38.200001,-0.5,0.5,7.5,F,F,0.29304,8.20512,No errors
11/13/2020 13:40,1605274800,Operable,43.746413,-95.471163,17893.487,3D,2.336,4.198,39.400002,-0.2,0.5,7.49,F,F,0.288156,8.068368,No errors
11/13/2020 13:40,1605274800,Operable,43.746457,-95.47099,17898.564,3D,2.337,4.205,41.099998,-0.3,0,7.49,F,F,0.29304,8.20512,No errors
11/13/2020 13:40,1605274802,Operable,43.746502,-95.470817,17903.589,3D,2.342,4.219,41.299999,-0.4,0.4,7.48,F,F,0.288156,8.068368,No errors
11/13/2020 13:40,1605274803,Operable,43.74655,-95.470642,17908.737,3D,2.349,4.24,42.5,-0.2,0.2,7.47,F,F,0.288156,8.068368,No errors
11/13/2020 13:40,1605274803,Operable,43.746598,-95.470464,17913.935,3D,2.36,4.258,42.700001,-0.2,0.3,7.47,F,F,0.288156,8.068368,No errors
11/13/2020 13:40,1605274805,Operable,43.746647,-95.470285,17919.167,3D,2.368,4.273,42.099998,-0.6,0.9,7.45,F,F,0.288156,8.068368,No errors
11/13/2020 13:40,1605274806,Operable,43.746697,-95.470105,17924.312,3D,2.374,4.29,43.099998,-0.7,0.2,7.45,F,F,0.29304,8.20512,No errors
11/13/2020 13:40,1605274806,Operable,43.746747,-95.469923,17929.522,3D,2.384,4.307,43.5,-0.5,0.1,7.45,F,F,0.29304,8.20512,No errors
11/13/2020 13:40,1605274808,Operable,43.746796,-95.46974,17934.747,3D,2.398,4.307,44.299999,-0.2,0,7.44,F,F,0.29304,8.20512,No errors
11/13/2020 13:40,1605274809,Operable,43.746846,-95.469556,17939.967,3D,2.499,4.414,43.599998,-0.7,0.2,7.44,F,F,0.288156,8.068368,No errors
11/13/2020 13:40,1605274809,Operable,43.746896,-95.469371,17945.233,3D,2.656,4.526,44.099998,-0.5,0.1,7.43,F,F,0.29304,8.20512,No errors
11/13/2020 13:40,1605274811,Operable,43.746945,-95.469184,17950.412,3D,2.699,4.501,43.599998,-0.5,0.5,7.43,F,F,0.29304,8.20512,No errors
11/13/2020 13:40,1605274812,Operable,43.746998,-95.468997,17956.021,3D,2.687,4.45,43.900002,-0.6,0.1,7.41,F,F,0.29304,8.20512,No errors
11/13/2020 13:40,1605274812,Operable,43.747051,-95.468807,17961.328,3D,2.669,4.4,43.099998,-0.9,0.3,7.41,F,F,0.29304,8.20512,No errors
11/13/2020 13:40,1605274814,Operable,43.747104,-95.468615,17966.577,3D,2.65,4.347,43.5,-0.6,0.2,7.42,F,F,0.29304,8.20512,No errors
11/13/2020 13:40,1605274815,Operable,43.747153,-95.468423,17971.701,3D,2.943,4.438,43.599998,-0.3,0.4,7.4,F,F,0.288156,8.068368,No errors
11/13/2020 13:40,1605274815,Operable,43.747202,-95.468227,17976.783,3D,3.543,4.561,43.5,-0.7,-0.1,7.4,F,F,0.288156,8.068368,No errors
11/13/2020 13:40,1605274817,Operable,43.747254,-95.46803,17981.733,3D,3.808,4.637,42.799999,-0.6,0.5,7.38,F,F,0.29304,8.20512,No errors
11/13/2020 13:40,1605274818,Operable,43.747307,-95.467829,17986.583,3D,3.869,4.688,43.5,-0.4,0,7.38,F,F,0.29304,8.20512,No errors
11/13/2020 13:40,1605274818,Operable,43.747358,-95.467627,17991.62,3D,3.838,4.691,43.900002,-0.2,0.1,7.38,F,F,0.288156,8.068368,No errors
11/13/2020 13:40,1605274820,Operable,43.74741,-95.46742,17996.707,3D,3.808,4.731,43.799999,0,0.4,7.37,F,F,0.288156,8.068368,No errors
11/13/2020 13:40,1605274821,Operable,43.747464,-95.46721,18001.726,3D,3.803,4.779,43.599998,-0.2,0.5,7.36,F,F,0.288156,8.068368,No errors
11/13/2020 13:40,1605274821,Operable,43.747517,-95.466998,18006.5,3D,3.778,4.785,44,0,0.3,7.35,F,F,0.288156,8.068368,No errors
11/13/2020 13:40,1605274823,Operable,43.747572,-95.466782,18011.411,3D,3.746,4.782,44.400002,-0.2,-0.1,7.35,F,F,0.29304,8.20512,No errors
11/13/2020 13:40,1605274824,Operable,43.747628,-95.466565,18016.519,3D,3.706,4.769,43.099998,-0.7,0.4,7.35,F,F,0.29304,8.20512,No errors
11/13/2020 13:40,1605274824,Operable,43.747683,-95.466346,18021.637,3D,3.655,4.734,43.200001,-0.7,0.5,7.34,F,F,0.29304,8.20512,No errors
11/13/2020 13:40,1605274826,Operable,43.747738,-95.466125,18026.848,3D,3.608,4.694,44,-0.5,0,7.33,F,F,0.288156,8.068368,No errors
11/13/2020 13:40,1605274827,Operable,43.747793,-95.4659,18032.11,3D,3.567,4.676,43.5,-0.9,0,7.32,F,F,0.29304,8.20512,No errors
11/13/2020 13:40,1605274827,Operable,43.747846,-95.465673,18037.267,3D,3.53,4.658,43.700001,-0.8,0,7.32,F,F,0.29304,8.20512,No errors
11/13/2020 13:40,1605274829,Operable,43.747899,-95.46544,18042.519,3D,3.496,4.638,43.900002,-0.5,0.2,7.31,F,F,0.288156,8.068368,No errors
11/13/2020 13:40,1605274830,Operable,43.747951,-95.465204,18047.844,3D,3.471,4.623,43.5,-0.7,0.1,7.31,F,F,0.288156,8.068368,No errors
11/13/2020 13:40,1605274830,Operable,43.748005,-95.464963,18053.065,3D,3.45,4.607,42.700001,-0.7,0.3,7.3,F,F,0.288156,8.068368,No errors
11/13/2020 13:40,1605274832,Operable,43.748059,-95.464718,18058.151,3D,3.402,4.576,42.5,-0.2,0.3,7.3,F,F,0.29304,8.20512,No errors
11/13/2020 13:40,1605274833,Operable,43.748112,-95.464471,18063.519,3D,3.348,4.533,41.099998,-0.6,0.5,7.29,F,F,0.29304,8.20512,No errors
11/13/2020 13:40,1605274833,Operable,43.748164,-95.464222,18068.63,3D,3.295,4.478,41.299999,-0.6,-0.2,7.29,F,F,0.29304,8.20512,No errors
11/13/2020 13:40,1605274835,Operable,43.748216,-95.463973,18073.8,3D,3.241,4.418,39.599998,-0.7,0,7.26,F,F,0.29304,8.20512,No errors
11/13/2020 13:40,1605274836,Operable,43.748266,-95.463723,18078.817,3D,3.129,4.366,38.900002,-0.4,0.1,7.26,F,F,0.29304,8.20512,No errors
11/13/2020 13:40,1605274836,Operable,43.748317,-95.463471,18084.022,3D,3.05,4.328,37.5,-0.6,0.4,7.25,F,F,0.288156,8.068368,No errors
11/13/2020 13:40,1605274838,Operable,43.748365,-95.463217,18089.016,3D,3.022,4.357,36.400002,-0.6,0.5,7.25,F,F,0.288156,8.068368,No errors
11/13/2020 13:40,1605274839,Operable,43.748413,-95.462961,18094.018,3D,3.009,4.399,36.700001,-0.3,-0.2,7.25,F,F,0.288156,8.068368,No errors
11/13/2020 13:40,1605274839,Operable,43.74846,-95.462702,18098.949,3D,2.997,4.448,35,-0.6,0.2,7.24,F,F,0.288156,8.068368,No errors
11/13/2020 13:40,1605274841,Operable,43.748507,-95.46244,18103.764,3D,2.986,4.52,33.900002,-0.6,0.7,7.25,F,F,0.29304,8.20512,No errors
11/13/2020 13:40,1605274842,Operable,43.748554,-95.462178,18108.723,3D,2.907,4.5,33.900002,-0.4,0.6,7.24,F,F,0.288156,8.068368,No errors
11/13/2020 13:40,1605274842,Operable,43.7486,-95.461914,18113.525,3D,2.849,4.491,35.200001,-0.1,0,7.24,F,F,0.29304,8.20512,No errors
11/13/2020 13:40,1605274844,Operable,43.748645,-95.461652,18118.513,3D,2.786,4.466,35,-0.4,0.1,7.22,F,F,0.29304,8.20512,No errors
11/13/2020 13:40,1605274845,Operable,43.74869,-95.461391,18123.429,3D,2.738,4.442,34.900002,-0.9,0.2,7.22,F,F,0.288156,8.068368,No errors
11/13/2020 13:40,1605274845,Operable,43.748734,-95.461132,18128.374,3D,2.704,4.421,35.599998,-0.4,0.5,7.21,F,F,0.29304,8.20512,No errors
11/13/2020 13:40,1605274847,Operable,43.748778,-95.460875,18133.186,3D,2.687,4.409,36.599998,-0.5,0.1,7.21,F,F,0.288156,8.068368,No errors
11/13/2020 13:40,1605274848,Operable,43.748821,-95.460617,18137.879,3D,2.674,4.396,37.5,-0.3,0,7.19,F,F,0.29304,8.20512,No errors
11/13/2020 13:40,1605274848,Operable,43.748863,-95.460359,18142.832,3D,2.667,4.383,38,-0.6,0.2,7.19,F,F,0.29304,8.20512,No errors
11/13/2020 13:40,1605274850,Operable,43.748905,-95.4601,18147.633,3D,2.663,4.375,37.900002,-0.7,0.6,7.19,F,F,0.29304,8.20512,No errors
11/13/2020 13:40,1605274851,Operable,43.748947,-95.459839,18152.328,3D,2.656,4.358,39.700001,-0.8,-0.1,7.18,F,F,0.29304,8.20512,No errors
11/13/2020 13:40,1605274851,Operable,43.748988,-95.459578,18157.13,3D,2.653,4.345,40.799999,-0.3,-0.2,7.18,F,F,0.29304,8.20512,No errors
11/13/2020 13:40,1605274853,Operable,43.74903,-95.459318,18161.839,3D,2.649,4.323,41,-0.3,0.2,7.18,F,F,0.288156,8.068368,No errors
11/13/2020 13:40,1605274854,Operable,43.74907,-95.459059,18166.611,3D,2.646,4.305,41.099998,-0.4,0.4,7.17,F,F,0.288156,8.068368,No errors
11/13/2020 13:40,1605274854,Operable,43.74911,-95.458799,18171.415,3D,2.648,4.303,41.700001,-0.2,0.3,7.16,F,F,0.29304,8.20512,No errors
11/13/2020 13:40,1605274856,Operable,43.74915,-95.45854,18176.204,3D,2.645,4.308,41.400002,-0.6,0.6,7.16,F,F,0.29304,8.20512,No errors
11/13/2020 13:40,1605274857,Operable,43.749188,-95.458281,18181.149,3D,2.642,4.308,42.200001,-0.2,0.3,7.16,F,F,0.29304,8.20512,No errors
11/13/2020 13:40,1605274857,Operable,43.749226,-95.458021,18186.057,3D,2.645,4.31,42.200001,0.1,0.6,7.14,F,F,0.288156,8.068368,No errors
11/13/2020 13:40,1605274859,Operable,43.749263,-95.457762,18190.917,3D,2.655,4.324,42.299999,-0.3,0.4,7.12,F,F,0.288156,8.068368,No errors
11/13/2020 13:41,1605274860,Operable,43.749299,-95.457503,18195.711,3D,2.662,4.337,42.599998,-0.5,0.2,7.12,F,F,0.288156,8.068368,No errors
11/13/2020 13:41,1605274860,Operable,43.749334,-95.457246,18200.48,3D,2.676,4.345,42.799999,-0.2,0.3,7.13,F,F,0.288156,8.068368,No errors
11/13/2020 13:41,1605274862,Operable,43.749368,-95.456989,18205.311,3D,2.692,4.354,42,-0.7,0.5,7.12,F,F,0.29304,8.20512,No errors
11/13/2020 13:41,1605274863,Operable,43.749403,-95.456734,18210.245,3D,2.704,4.358,42.799999,-0.6,-0.1,7.12,F,F,0.288156,8.068368,No errors
11/13/2020 13:41,1605274863,Operable,43.749438,-95.456481,18215.207,3D,2.724,4.376,42.700001,-0.2,0,7.11,F,F,0.29304,8.20512,No errors
11/13/2020 13:41,1605274865,Operable,43.749473,-95.456227,18220.012,3D,2.745,4.395,42.099998,-0.6,0.1,7.1,F,F,0.29304,8.20512,No errors
11/13/2020 13:41,1605274866,Operable,43.749507,-95.455973,18224.753,3D,2.768,4.416,41.900002,-0.8,-0.2,7.1,F,F,0.29304,8.20512,No errors
11/13/2020 13:41,1605274866,Operable,43.749541,-95.455721,18229.574,3D,2.787,4.433,41.099998,-0.7,0.5,7.09,F,F,0.29304,8.20512,No errors
11/13/2020 13:41,1605274868,Operable,43.749574,-95.455468,18234.381,3D,2.792,4.424,41.299999,-0.8,0.1,7.09,F,F,0.29304,8.20512,No errors
11/13/2020 13:41,1605274869,Operable,43.749606,-95.455216,18239.125,3D,2.796,4.416,40.799999,-0.6,0.4,7.09,F,F,0.29304,8.20512,No errors
11/13/2020 13:41,1605274869,Operable,43.749639,-95.454965,18243.874,3D,2.792,4.398,40.900002,-0.1,0.4,7.08,F,F,0.29304,8.20512,No errors
11/13/2020 13:41,1605274871,Operable,43.749672,-95.454714,18248.716,3D,2.789,4.397,40.299999,-0.8,0,7.07,F,F,0.288156,8.068368,No errors
11/13/2020 13:41,1605274872,Operable,43.749708,-95.454464,18253.571,3D,2.787,4.394,39.900002,-0.9,0.1,7.07,F,F,0.29304,8.20512,No errors
11/13/2020 13:41,1605274872,Operable,43.749745,-95.454214,18258.346,3D,2.788,4.397,39.799999,-0.3,0.1,7.06,F,F,0.288156,8.068368,No errors
11/13/2020 13:41,1605274874,Operable,43.749784,-95.453964,18263.131,3D,2.795,4.403,39.200001,-0.2,0.1,7.05,F,F,0.29304,8.20512,No errors
11/13/2020 13:41,1605274875,Operable,43.749824,-95.453714,18268.05,3D,2.798,4.408,38.5,-0.4,0.2,7.04,F,F,0.29304,8.20512,No errors
11/13/2020 13:41,1605274875,Operable,43.749864,-95.453461,18272.864,3D,2.794,4.399,37.900002,-0.5,0.4,7.04,F,F,0.288156,8.068368,No errors
11/13/2020 13:41,1605274877,Operable,43.749903,-95.453209,18277.792,3D,2.788,4.398,37.5,-0.7,0.4,7.03,F,F,0.29304,8.20512,No errors
11/13/2020 13:41,1605274878,Operable,43.749942,-95.452956,18282.781,3D,2.78,4.396,37.400002,-0.5,0.3,7.03,F,F,0.29304,8.20512,No errors
11/13/2020 13:41,1605274878,Operable,43.749982,-95.452704,18287.597,3D,2.778,4.4,36.799999,-0.9,0.1,7.02,F,F,0.288156,8.068368,No errors
11/13/2020 13:41,1605274880,Operable,43.750023,-95.452452,18292.393,3D,2.773,4.394,36.400002,-0.7,0.2,7.01,F,F,0.288156,8.068368,No errors
11/13/2020 13:41,1605274881,Operable,43.750066,-95.452199,18297.248,3D,2.773,4.399,36.400002,-0.5,0.3,7.01,F,F,0.29304,8.20512,No errors
11/13/2020 13:41,1605274881,Operable,43.750111,-95.451946,18302.16,3D,2.777,4.407,36.400002,-0.5,0.1,7.01,F,F,0.29304,8.20512,No errors
11/13/2020 13:41,1605274883,Operable,43.750157,-95.451692,18307.05,3D,2.779,4.413,36,-0.7,0.3,7,F,F,0.29304,8.20512,No errors
11/13/2020 13:41,1605274884,Operable,43.750203,-95.451438,18311.933,3D,2.781,4.416,36,-0.6,0.4,7,F,F,0.288156,8.068368,No errors
11/13/2020 13:41,1605274884,Operable,43.750249,-95.451185,18316.747,3D,2.78,4.417,36.599998,-0.4,-0.1,7,F,F,0.29304,8.20512,No errors
11/13/2020 13:41,1605274886,Operable,43.750294,-95.450932,18321.701,3D,2.779,4.42,35.900002,-0.6,0.1,6.99,F,F,0.288156,8.068368,No errors
11/13/2020 13:41,1605274887,Operable,43.750338,-95.450681,18326.504,3D,2.788,4.443,35.900002,-0.4,0.2,6.99,F,F,0.288156,8.068368,No errors
11/13/2020 13:41,1605274887,Operable,43.750382,-95.450432,18331.151,3D,2.799,4.471,35.599998,-0.4,0.2,6.97,F,F,0.29304,8.20512,No errors
11/13/2020 13:41,1605274889,Operable,43.750426,-95.450182,18335.996,3D,2.807,4.486,35.200001,-0.6,0.3,6.97,F,F,0.29304,8.20512,No errors
11/13/2020 13:41,1605274890,Operable,43.750471,-95.449933,18340.872,3D,2.81,4.498,35.5,-0.3,0.3,6.96,F,F,0.288156,8.068368,No errors
11/13/2020 13:41,1605274890,Operable,43.750519,-95.449683,18345.719,3D,2.812,4.509,35.200001,-0.6,0.4,6.96,F,F,0.29304,8.20512,No errors
11/13/2020 13:41,1605274892,Operable,43.750568,-95.449432,18350.66,3D,2.814,4.519,35.599998,-0.5,0.3,6.95,F,F,0.29304,8.20512,No errors
11/13/2020 13:41,1605274893,Operable,43.750617,-95.449181,18355.357,3D,2.815,4.524,35.799999,-0.5,0.3,6.94,F,F,0.29304,8.20512,No errors
11/13/2020 13:41,1605274893,Operable,43.750668,-95.448928,18360.051,3D,2.81,4.52,35.900002,-0.4,0.4,6.94,F,F,0.29304,8.20512,No errors
11/13/2020 13:41,1605274895,Operable,43.750719,-95.448676,18364.814,3D,2.807,4.522,36.099998,-0.6,0.2,6.93,F,F,0.29304,8.20512,No errors
11/13/2020 13:41,1605274896,Operable,43.75077,-95.448424,18369.507,3D,2.811,4.53,36.400002,-0.2,0.4,6.93,F,F,0.29304,8.20512,No errors
11/13/2020 13:41,1605274896,Operable,43.750822,-95.448174,18374.104,3D,2.814,4.533,36.400002,-0.6,0.3,6.93,F,F,0.29304,8.20512,No errors
11/13/2020 13:41,1605274898,Operable,43.750875,-95.447925,18378.688,3D,2.818,4.541,36.799999,-0.5,0.2,6.93,F,F,0.29304,8.20512,No errors
11/13/2020 13:41,1605274899,Operable,43.750928,-95.447679,18383.183,3D,2.824,4.555,37.099998,-0.7,0,6.93,F,F,0.29304,8.20512,No errors
11/13/2020 13:41,1605274899,Operable,43.750981,-95.447433,18387.73,3D,2.826,4.553,37.200001,-0.4,0.3,6.93,F,F,0.29304,8.20512,No errors
11/13/2020 13:41,1605274901,Operable,43.751036,-95.447188,18392.075,3D,2.823,4.547,37,-0.5,0.4,6.91,F,F,0.288156,8.068368,No errors
11/13/2020 13:41,1605274902,Operable,43.75109,-95.446943,18396.551,3D,2.819,4.541,37,-0.5,0.5,6.91,F,F,0.29304,8.20512,No errors
11/13/2020 13:41,1605274902,Operable,43.751143,-95.446697,18400.912,3D,2.81,4.532,37.5,-0.6,0.4,6.9,F,F,0.29304,8.20512,No errors
11/13/2020 13:41,1605274904,Operable,43.751195,-95.446449,18405.554,3D,2.804,4.526,38.200001,-0.7,0.1,6.89,F,F,0.29304,8.20512,No errors
11/13/2020 13:41,1605274905,Operable,43.751245,-95.446201,18410.119,3D,2.803,4.559,38.400002,-0.5,0.2,6.89,F,F,0.29304,8.20512,No errors
11/13/2020 13:41,1605274905,Operable,43.751296,-95.445953,18414.821,3D,2.811,4.611,38.700001,-0.5,0.3,6.88,F,F,0.29304,8.20512,No errors
11/13/2020 13:41,1605274907,Operable,43.751347,-95.445706,18419.336,3D,2.83,4.673,38.900002,-0.4,0.4,6.89,F,F,0.288156,8.068368,No errors
11/13/2020 13:41,1605274908,Operable,43.7514,-95.445462,18424.033,3D,2.835,4.691,39.200001,-0.4,0.4,6.88,F,F,0.29304,8.20512,No errors
11/13/2020 13:41,1605274908,Operable,43.751454,-95.44522,18428.699,3D,2.837,4.714,39.099998,-0.6,0.3,6.86,F,F,0.29304,8.20512,No errors
11/13/2020 13:41,1605274910,Operable,43.751508,-95.444982,18433.253,3D,2.832,4.728,39.299999,-0.7,0.1,6.86,F,F,0.29304,8.20512,No errors
11/13/2020 13:41,1605274911,Operable,43.751562,-95.444744,18437.95,3D,2.829,4.74,39.400002,-0.6,0.1,6.87,F,F,0.29304,8.20512,No errors
11/13/2020 13:41,1605274911,Operable,43.751615,-95.444506,18442.605,3D,2.823,4.746,39.599998,-0.4,0.2,6.86,F,F,0.29304,8.20512,No errors
11/13/2020 13:41,1605274913,Operable,43.751665,-95.444268,18447.242,3D,2.824,4.758,39.900002,-0.1,0.2,6.85,F,F,0.29304,8.20512,No errors
11/13/2020 13:41,1605274914,Operable,43.751714,-95.444029,18451.837,3D,2.828,4.771,39.900002,-0.4,0.1,6.85,F,F,0.29304,8.20512,No errors
11/13/2020 13:41,1605274914,Operable,43.751761,-95.443791,18456.373,3D,2.834,4.801,39.200001,-0.8,0.5,6.85,F,F,0.29304,8.20512,No errors
11/13/2020 13:41,1605274916,Operable,43.751807,-95.443553,18460.835,3D,2.846,4.844,39.900002,-0.5,0.2,6.84,F,F,0.29304,8.20512,No errors
11/13/2020 13:41,1605274917,Operable,43.751854,-95.443316,18465.651,3D,2.866,4.897,39.799999,-0.5,0.3,6.83,F,F,0.29304,8.20512,No errors
11/13/2020 13:41,1605274917,Operable,43.751901,-95.443082,18470.181,3D,2.888,4.943,39.099998,-0.6,0.6,6.83,F,F,0.288156,8.068368,No errors
11/13/2020 13:41,1605274919,Operable,43.751947,-95.44285,18474.865,3D,2.897,4.959,39.599998,-0.4,0.3,6.83,F,F,0.29304,8.20512,No errors
11/13/2020 13:42,1605274920,Operable,43.751991,-95.442621,18479.67,3D,2.909,5,40.099998,-0.1,0.1,6.82,F,F,0.29304,8.20512,No errors
11/13/2020 13:42,1605274920,Operable,43.752035,-95.442392,18484.565,3D,2.916,5.023,39.299999,-0.3,0.4,6.82,F,F,0.29304,8.20512,No errors
11/13/2020 13:42,1605274922,Operable,43.752076,-95.442165,18489.405,3D,2.924,5.053,39.200001,-0.6,0.3,6.81,F,F,0.29304,8.20512,No errors
11/13/2020 13:42,1605274923,Operable,43.752117,-95.441938,18494.047,3D,2.932,5.078,39.099998,-0.4,0.3,6.79,F,F,0.29304,8.20512,No errors
11/13/2020 13:42,1605274923,Operable,43.752156,-95.441713,18498.659,3D,2.945,5.104,39,-0.6,0.2,6.8,F,F,0.29304,8.20512,No errors
11/13/2020 13:42,1605274925,Operable,43.752196,-95.441488,18503.032,3D,2.965,5.15,39.200001,-0.3,0.1,6.8,F,F,0.29304,8.20512,No errors
11/13/2020 13:42,1605274926,Operable,43.752235,-95.441266,18507.799,3D,2.974,5.162,38.900002,-0.6,0,6.77,F,F,0.29304,8.20512,No errors
11/13/2020 13:42,1605274926,Operable,43.752275,-95.441046,18512.446,3D,2.974,5.171,38.5,-0.4,0.4,6.77,F,F,0.288156,8.068368,No errors
11/13/2020 13:42,1605274928,Operable,43.752317,-95.440827,18517.161,3D,2.976,5.183,38.5,-0.5,0.2,6.76,F,F,0.29304,8.20512,No errors
11/13/2020 13:42,1605274929,Operable,43.75236,-95.440609,18521.951,3D,2.987,5.228,38,-0.4,0.4,6.76,F,F,0.29304,8.20512,No errors
11/13/2020 13:42,1605274929,Operable,43.752403,-95.440393,18526.77,3D,3.002,5.262,37.799999,-0.6,0.4,6.76,F,F,0.29304,8.20512,No errors
11/13/2020 13:42,1605274931,Operable,43.752445,-95.440177,18531.61,3D,3.024,5.32,37.799999,-0.4,0.4,6.76,F,F,0.29304,8.20512,No errors
11/13/2020 13:42,1605274932,Operable,43.752486,-95.439961,18536.357,3D,3.043,5.368,37.700001,-0.4,0.3,6.76,F,F,0.288156,8.068368,No errors
11/13/2020 13:42,1605274932,Operable,43.752525,-95.439746,18541.044,3D,3.062,5.421,37.400002,-0.6,0.3,6.75,F,F,0.29304,8.20512,No errors
11/13/2020 13:42,1605274934,Operable,43.752564,-95.43953,18545.776,3D,3.076,5.471,37.5,-0.6,0.2,6.74,F,F,0.29304,8.20512,No errors
11/13/2020 13:42,1605274935,Operable,43.752601,-95.439316,18550.368,3D,3.089,5.518,37,-0.6,0.5,6.74,F,F,0.288156,8.068368,No errors
11/13/2020 13:42,1605274935,Operable,43.752638,-95.439102,18554.817,3D,3.098,5.566,37.5,-0.4,0.1,6.73,F,F,0.29304,8.20512,No errors
11/13/2020 13:42,1605274937,Operable,43.752675,-95.438891,18559.321,3D,3.104,5.579,36.599998,-0.7,0.5,6.72,F,F,0.29304,8.20512,No errors
11/13/2020 13:42,1605274938,Operable,43.752712,-95.438681,18563.837,3D,3.108,5.603,36.900002,-0.3,0.4,6.72,F,F,0.29304,8.20512,No errors
11/13/2020 13:42,1605274938,Operable,43.752749,-95.438472,18568.384,3D,3.112,5.624,36.700001,-0.6,0.2,6.7,F,F,0.29304,8.20512,No errors
11/13/2020 13:42,1605274940,Operable,43.752786,-95.438264,18573.112,3D,3.118,5.645,36.400002,-0.5,0.4,6.7,F,F,0.29304,8.20512,No errors
11/13/2020 13:42,1605274941,Operable,43.752823,-95.438057,18577.835,3D,3.123,5.659,36.299999,-0.5,0.5,6.69,F,F,0.288156,8.068368,No errors
11/13/2020 13:42,1605274941,Operable,43.752861,-95.437849,18582.544,3D,3.128,5.686,36.599998,-0.2,0.4,6.7,F,F,0.29304,8.20512,No errors
11/13/2020 13:42,1605274943,Operable,43.752898,-95.437641,18587.326,3D,3.134,5.715,36.400002,-0.4,0.5,6.69,F,F,0.29304,8.20512,No errors
11/13/2020 13:42,1605274944,Operable,43.752935,-95.437433,18591.862,3D,3.137,5.744,36.900002,-0.3,0.1,6.69,F,F,0.29304,8.20512,No errors
11/13/2020 13:42,1605274944,Operable,43.752972,-95.437227,18596.364,3D,3.136,5.764,36.700001,-0.7,0,6.68,F,F,0.29304,8.20512,No errors
11/13/2020 13:42,1605274946,Operable,43.753009,-95.437023,18601.114,3D,3.134,5.783,36.299999,-0.5,0.4,6.68,F,F,0.29304,8.20512,No errors
11/13/2020 13:42,1605274947,Operable,43.753045,-95.436821,18605.584,3D,3.133,5.802,35.799999,-0.7,0.6,6.68,F,F,0.288156,8.068368,No errors
11/13/2020 13:42,1605274947,Operable,43.753081,-95.436621,18610.322,3D,3.131,5.819,36.5,-0.5,0.2,6.68,F,F,0.29304,8.20512,No errors
11/13/2020 13:42,1605274949,Operable,43.753117,-95.436423,18614.738,3D,3.123,5.796,36.299999,-0.5,0.3,6.67,F,F,0.29304,8.20512,No errors
11/13/2020 13:42,1605274950,Operable,43.753153,-95.436227,18619.126,3D,3.115,5.781,36,-0.6,0.4,6.66,F,F,0.29304,8.20512,No errors
11/13/2020 13:42,1605274950,Operable,43.753189,-95.436031,18623.524,3D,3.109,5.778,36.299999,-0.4,0.2,6.66,F,F,0.29304,8.20512,No errors
11/13/2020 13:42,1605274952,Operable,43.753226,-95.435835,18627.86,3D,3.104,5.78,36.200001,-0.5,0.3,6.66,F,F,0.29304,8.20512,No errors
11/13/2020 13:42,1605274953,Operable,43.753262,-95.435639,18632.112,3D,3.1,5.785,36.299999,-0.8,0.1,6.65,F,F,0.288156,8.068368,No errors
11/13/2020 13:42,1605274953,Operable,43.753298,-95.435442,18636.531,3D,3.103,5.806,36.299999,-0.6,0.2,6.65,F,F,0.29304,8.20512,No errors
11/13/2020 13:42,1605274955,Operable,43.753334,-95.435247,18640.981,3D,3.107,5.824,36.299999,-0.6,0.3,6.65,F,F,0.288156,8.068368,No errors
11/13/2020 13:42,1605274956,Operable,43.753371,-95.435053,18645.414,3D,3.108,5.833,36.400002,-0.3,0.2,6.64,F,F,0.29304,8.20512,No errors
11/13/2020 13:42,1605274956,Operable,43.75341,-95.43486,18650.088,3D,3.104,5.822,35.799999,-0.7,0.4,6.62,F,F,0.29304,8.20512,No errors
11/13/2020 13:42,1605274958,Operable,43.753449,-95.434668,18654.543,3D,3.1,5.82,35.900002,-0.5,0.5,6.62,F,F,0.29304,8.20512,No errors
11/13/2020 13:42,1605274959,Operable,43.753488,-95.434475,18658.981,3D,3.102,5.823,36.299999,-0.5,0.2,6.63,F,F,0.288156,8.068368,No errors
11/13/2020 13:42,1605274959,Operable,43.753528,-95.434283,18663.566,3D,3.106,5.827,36.400002,-0.5,0.2,6.61,F,F,0.29304,8.20512,No errors
11/13/2020 13:42,1605274961,Operable,43.753568,-95.434089,18668.062,3D,3.112,5.853,36.299999,-0.3,0.4,6.61,F,F,0.29304,8.20512,No errors
11/13/2020 13:42,1605274962,Operable,43.753607,-95.433897,18672.787,3D,3.117,5.858,36.200001,-0.7,0.2,6.6,F,F,0.29304,8.20512,No errors
11/13/2020 13:42,1605274962,Operable,43.753646,-95.433706,18677.148,3D,3.121,5.864,36.200001,-0.6,0.2,6.6,F,F,0.29304,8.20512,No errors
11/13/2020 13:42,1605274964,Operable,43.753685,-95.433516,18681.775,3D,3.13,5.894,36.099998,-0.2,0.3,6.59,F,F,0.288156,8.068368,No errors
11/13/2020 13:42,1605274965,Operable,43.753723,-95.433329,18686.537,3D,3.143,5.929,35.799999,-0.3,0.4,6.6,F,F,0.29304,8.20512,No errors
11/13/2020 13:42,1605274965,Operable,43.753762,-95.433143,18690.801,3D,3.155,5.973,35.5,-0.6,0.3,6.59,F,F,0.288156,8.068368,No errors
11/13/2020 13:42,1605274967,Operable,43.753804,-95.432957,18695.253,3D,3.164,6.004,35.599998,-0.4,0.2,6.58,F,F,0.29304,8.20512,No errors
11/13/2020 13:42,1605274968,Operable,43.753846,-95.432772,18699.928,3D,3.169,6.029,35.200001,-0.6,0.3,6.57,F,F,0.29304,8.20512,No errors
11/13/2020 13:42,1605274968,Operable,43.753889,-95.432586,18704.712,3D,3.168,6.041,35.400002,-0.5,0.1,6.57,F,F,0.29304,8.20512,No errors
11/13/2020 13:42,1605274970,Operable,43.753933,-95.432399,18709.127,3D,3.164,6.046,35.5,-0.3,0.2,6.57,F,F,0.29304,8.20512,No errors
11/13/2020 13:42,1605274971,Operable,43.753976,-95.432211,18713.845,3D,3.165,6.062,35.200001,-0.4,0.3,6.57,F,F,0.29304,8.20512,No errors
11/13/2020 13:42,1605274971,Operable,43.754019,-95.432024,18718.381,3D,3.163,6.088,34.900002,-0.6,0.2,6.56,F,F,0.29304,8.20512,No errors
11/13/2020 13:42,1605274973,Operable,43.754061,-95.431839,18723.009,3D,3.155,6.098,34.400002,-0.7,0.3,6.54,F,F,0.29304,8.20512,No errors
11/13/2020 13:42,1605274974,Operable,43.754104,-95.431654,18727.477,3D,3.142,6.114,34,-0.6,0.4,6.55,F,F,0.29304,8.20512,No errors
11/13/2020 13:42,1605274974,Operable,43.754148,-95.431472,18732.06,3D,3.132,6.125,34.200001,-0.4,0.3,6.53,F,F,0.29304,8.20512,No errors
11/13/2020 13:42,1605274976,Operable,43.754193,-95.43129,18736.784,3D,3.128,6.143,34.599998,-0.4,0.1,6.53,F,F,0.29304,8.20512,No errors
11/13/2020 13:42,1605274977,Operable,43.75424,-95.431107,18741.198,3D,3.11,6.163,34.599998,-0.3,0.1,6.53,F,F,0.288156,8.068368,No errors
11/13/2020 13:42,1605274977,Operable,43.754289,-95.430923,18745.742,3D,3.107,6.185,34.599998,-0.3,0.2,6.53,F,F,0.29304,8.20512,No errors
11/13/2020 13:42,1605274979,Operable,43.754337,-95.430739,18750.268,3D,3.108,6.214,34.5,-0.5,0.2,6.52,F,F,0.29304,8.20512,No errors
11/13/2020 13:43,1605274980,Operable,43.754385,-95.430554,18754.853,3D,3.108,6.243,35.099998,-0.2,0,6.53,F,F,0.288156,8.068368,No errors
11/13/2020 13:43,1605274980,Operable,43.754433,-95.430368,18759.329,3D,3.113,6.281,34.900002,-0.6,0,6.52,F,F,0.29304,8.20512,No errors
11/13/2020 13:43,1605274982,Operable,43.75448,-95.430184,18763.924,3D,3.12,6.324,34.599998,-0.6,0.3,6.51,F,F,0.288156,8.068368,No errors
11/13/2020 13:43,1605274983,Operable,43.754527,-95.430002,18768.479,3D,3.123,6.368,34.900002,-0.5,0.4,6.5,F,F,0.29304,8.20512,No errors
11/13/2020 13:43,1605274983,Operable,43.754574,-95.429822,18773.026,3D,3.125,6.409,35,-0.6,0.5,6.5,F,F,0.288156,8.068368,No errors
11/13/2020 13:43,1605274985,Operable,43.754621,-95.429642,18777.418,3D,3.115,6.44,35.599998,-0.3,0.6,6.5,F,F,0.288156,8.068368,No errors
11/13/2020 13:43,1605274986,Operable,43.754668,-95.429464,18782.036,3D,3.083,6.411,36.599998,-0.6,0.1,6.49,F,F,0.29304,8.20512,No errors
11/13/2020 13:43,1605274986,Operable,43.754714,-95.429285,18786.6,3D,3.054,6.386,37.099998,-0.2,0.5,6.49,F,F,0.288156,8.068368,No errors
11/13/2020 13:43,1605274988,Operable,43.754759,-95.429104,18791.118,3D,3.033,6.348,37.599998,-0.4,0.4,6.48,F,F,0.29304,8.20512,No errors
11/13/2020 13:43,1605274989,Operable,43.754803,-95.428922,18795.692,3D,3.023,6.314,37.900002,-0.2,0.4,6.48,F,F,0.29304,8.20512,No errors
11/13/2020 13:43,1605274989,Operable,43.754847,-95.428738,18800.091,3D,3.018,6.265,38.700001,-0.3,0.3,6.47,F,F,0.288156,8.068368,No errors
11/13/2020 13:43,1605274991,Operable,43.75489,-95.428554,18804.574,3D,3.014,6.225,39.299999,-0.4,0.1,6.48,F,F,0.29304,8.20512,No errors
11/13/2020 13:43,1605274992,Operable,43.754933,-95.428371,18809.002,3D,3.01,6.159,39.599998,-0.5,0.2,6.47,F,F,0.29304,8.20512,No errors
11/13/2020 13:43,1605274993,Operable,43.754976,-95.428187,18813.455,3D,3.009,6.09,40.099998,-0.4,0.3,6.46,F,F,0.29304,8.20512,No errors
11/13/2020 13:43,1605274994,Operable,43.755018,-95.428002,18817.977,3D,3.012,6.012,41,-0.5,0,6.46,F,F,0.29304,8.20512,No errors
11/13/2020 13:43,1605274995,Operable,43.75506,-95.427816,18822.581,3D,3.011,5.935,41.5,-0.4,0,6.46,F,F,0.29304,8.20512,No errors
11/13/2020 13:43,1605274996,Operable,43.755101,-95.42763,18827.023,3D,3.008,5.86,41,-0.6,0.4,6.45,F,F,0.29304,8.20512,No errors
11/13/2020 13:43,1605274997,Operable,43.755143,-95.427442,18831.509,3D,3.013,5.797,41.599998,-0.3,0.5,6.44,F,F,0.29304,8.20512,No errors
11/13/2020 13:43,1605274998,Operable,43.755184,-95.427253,18835.985,3D,3.02,5.751,41.200001,-0.4,0.6,6.44,F,F,0.288156,8.068368,No errors
11/13/2020 13:43,1605274999,Operable,43.755224,-95.427064,18840.604,3D,3.018,5.71,42.299999,-0.2,0.3,6.44,F,F,0.29304,8.20512,No errors
11/13/2020 13:43,1605275000,Operable,43.755264,-95.426873,18845.065,3D,3.016,5.668,42.400002,-0.2,0.4,6.43,F,F,0.29304,8.20512,No errors
11/13/2020 13:43,1605275001,Operable,43.755303,-95.426681,18849.695,3D,3.008,5.62,42.400002,-0.4,0.3,6.44,F,F,0.29304,8.20512,No errors
11/13/2020 13:43,1605275002,Operable,43.755341,-95.426489,18854.351,3D,3.008,5.576,41.799999,-0.6,0.7,6.43,F,F,0.29304,8.20512,No errors
11/13/2020 13:43,1605275003,Operable,43.755378,-95.426295,18858.921,3D,3.01,5.534,42.599998,-0.6,0.3,6.43,F,F,0.288156,8.068368,No errors
11/13/2020 13:43,1605275004,Operable,43.755414,-95.426101,18863.779,3D,3.012,5.492,43.200001,-0.3,0,6.41,F,F,0.29304,8.20512,No errors
11/13/2020 13:43,1605275005,Operable,43.755449,-95.425905,18868.383,3D,3.011,5.454,42.599998,-0.3,0.4,6.41,F,F,0.288156,8.068368,No errors
11/13/2020 13:43,1605275006,Operable,43.755484,-95.425709,18873.057,3D,3.014,5.417,43,-0.5,0,6.41,F,F,0.29304,8.20512,No errors
11/13/2020 13:43,1605275007,Operable,43.755519,-95.42551,18877.515,3D,3.02,5.403,42.700001,-0.3,0.3,6.39,F,F,0.29304,8.20512,No errors
11/13/2020 13:43,1605275008,Operable,43.755552,-95.425311,18882.124,3D,3.028,5.397,42,-0.6,0.7,6.4,F,F,0.29304,8.20512,No errors
11/13/2020 13:43,1605275009,Operable,43.755583,-95.425111,18886.723,3D,3.025,5.356,42.5,-0.4,0.3,6.38,F,F,0.29304,8.20512,No errors
